SALE TYPE,SOLD DATE,PROPERTY TYPE,ADDRESS,CITY,STATE OR PROVINCE,ZIP OR POSTAL CODE,PRICE,BEDS,BATHS,LOCATION,SQUARE FEET,LOT SIZE,YEAR BUILT,DAYS ON MARKET,$/SQUARE FEET,HOA/MONTH,STATUS,NEXT OPEN HOUSE START TIME,NEXT OPEN HOUSE END TIME,URL (SEE https://www.redfin.com/buy-a-home/comparative-market-analysis FOR INFO ON PRICING),SOURCE,MLS#,FAVORITE,INTERESTED,LATITUDE,LONGITUDE
MLS Listing,,Single Family Residential,44245 Greenview Ln,Northville Twp,MI,48168,829000,5,4.5,Northville Twp,3544,16988,2001,1,234,500,Pre On-Market,January-14-2023 01:00 PM,January-14-2023 03:00 PM,https://www.redfin.com/MI/Northville/44245-Greenview-Ln-48168/home/98889935,REALCOMP,20230002293,N,Y,42.408071,-83.480594
MLS Listing,,Condo/Co-op,17299 Garden Ridge Ln,Northville Twp,MI,48168,649900,3,3,Northville Twp,1834,,2020,1,354,490,Active,,,https://www.redfin.com/MI/Northville/17299-Garden-Ridge-Ln-48168/home/167970784,REALCOMP,20230002532,N,Y,42.4103614,-83.5336665
MLS Listing,,Condo/Co-op,17223 Princeton Ln #70,Northville Twp,MI,48168,686333,2,2,Northville Twp,1834,,2023,2,374,490,Active,,,https://www.redfin.com/MI/Northville/17223-Princeton-Ln-48168/unit-70/home/183734996,REALCOMP,20230002192,N,Y,42.4103614,-83.5336665
MLS Listing,,Single Family Residential,48117 Fieldstone Dr,Northville Twp,MI,48168,700000,4,3.5,Northville Twp,2942,6098,2020,2,238,70,Pre On-Market,January-14-2023 12:00 PM,January-14-2023 02:00 PM,https://www.redfin.com/MI/Northville/48117-Fieldstone-Dr-48168/home/170623124,REALCOMP,20230002089,N,Y,42.3964314,-83.5155702
MLS Listing,,Single Family Residential,46051 Seven Mile Rd,Northville Twp,MI,48167,2185000,4,4,Northville Twp,3575,43995,2024,5,611,,Active,,,https://www.redfin.com/MI/Northville/46051-7-Mile-Rd-48167/home/98885535,REALCOMP,20221067402,N,Y,42.4232818,-83.4973773
MLS Listing,,Single Family Residential,16290 Brook Trout Ln,Northville Twp,MI,48168,769000,4,4.5,Northville Twp,3314,14810,2011,7,232,63,Active,,,https://www.redfin.com/MI/Northville/16290-Brook-Trout-Ln-48168/home/98891330,REALCOMP,20221069543,N,Y,42.4020839,-83.5212494
MLS Listing,,Single Family Residential,22465 Simcheck Dr,Lyon Twp,MI,48167,1099990,4,4.5,Lyon Twp,4121,229125,1977,10,267,,Active,,,https://www.redfin.com/MI/Northville/22465-Simcheck-48167/home/99219410,REALCOMP,20221068648,N,Y,42.452864,-83.557483
MLS Listing,,Condo/Co-op,16728 Dover Dr,Northville Twp,MI,48168,249999,2,2,Northville Twp,1653,,2002,15,151,310,Active,,,https://www.redfin.com/MI/Northville/16728-Dover-Dr-48168/home/180162845,REALCOMP,20221070256,N,Y,42.4004109,-83.5331951
MLS Listing,,Condo/Co-op,18218 Jamestown Cir,Northville,MI,48168,140000,1,1.5,Northville Twp,962,,1966,16,146,440,Active,,,https://www.redfin.com/MI/Northville/18218-Jamestown-Cir-48168/home/183580252,REALCOMP,57050098251,N,Y,42.4186593,-83.4739895
MLS Listing,,Condo/Co-op,18218 Jamestown Cir Unit Court 4,Northville,MI,48168,140000,1,1.5,Kings Mill Cooperative,962,,1966,16,146,440,Active,,,https://www.redfin.com/MI/Northville/18218-Jamestown-Cir-48168/unit-Court-4/home/183611503,MiRealSource-MiMLS,50098251,N,Y,42.4186593,-83.4739895
MLS Listing,,Single Family Residential,340 Pennell St,Northville,MI,48167,285000,2,1,Northville (Wayne County),808,5227,1923,25,353,,Active,,,https://www.redfin.com/MI/Northville/340-Pennell-St-48167/home/83586699,REALCOMP,20221069213,N,Y,42.4344176,-83.4770307
MLS Listing,,Vacant Land,20775 Cambridge Dr,Novi,MI,48167,750000,,,Novi,,89733,,27,,,Active,,,https://www.redfin.com/MI/Novi/20775-Cambridge-Parcel-B-DR-48167/home/182241717,REALCOMP,20221069016,N,Y,42.4312595,-83.483215
MLS Listing,,Mobile/Manufactured Home,9960 Berkshire,Salem Twp,MI,48167,77900,3,2,Salem Twp,1500,,1998,27,52,605,Active,,,https://www.redfin.com/MI/Northville/9960-Berkshire-Ct-48167/home/143962548,REALCOMP,20221068877,N,Y,42.4324449,-83.6106257
MLS Listing,,Condo/Co-op,39836 Eagle Trace Dr,Northville Twp,MI,48168,429900,2,2,Northville Twp,1738,,1989,30,247,390,Active,,,https://www.redfin.com/MI/Northville/39836-Eagle-Trace-Dr-48168/home/98887821,REALCOMP,20221068152,N,Y,42.4076942,-83.4460063
MLS Listing,,Single Family Residential,58624 Greystone Dr,South Lyon,MI,48178,519990,4,3,South Lyon,2605,,2022,36,200,125,Active,,,https://www.redfin.com/MI/South-Lyon/58624-Greystone-34-48178/home/183179457,REALCOMP,20221066788,N,Y,42.440359,-83.627937
MLS Listing,,Single Family Residential,58852 Greystone Dr,Lyon Twp,MI,48178,498490,3,2.5,Lyon Twp,2391,8276,2022,36,208,125,Active,,,https://www.redfin.com/MI/South-Lyon/58852-Greystone-48178/home/182514261,REALCOMP,20221066784,N,Y,42.440415,-83.629258
MLS Listing,,Vacant Land,7152 5 Mile Rd,Salem Twp,MI,48168,250000,,,Salem Twp,,435600,,37,,,Active,,,https://www.redfin.com/MI/Northville/7152-5-Mile-Rd-48168/home/99375585,REALCOMP,20221066638,N,Y,42.3877158,-83.6223457
MLS Listing,,Single Family Residential,48119 Leland Dr,Northville Twp,MI,48168,729900,4,3.5,Northville Twp,3219,,2021,37,227,70,Active,,,https://www.redfin.com/MI/Northville/48119-Leland-Dr-48168/home/170623182,REALCOMP,20221066536,N,Y,42.3972908,-83.5144342
MLS Listing,,Condo/Co-op,44436 Birchwood,Northville Twp,MI,48168,474900,2,3,Northville Twp,1960,,2002,41,242,480,Active,,,https://www.redfin.com/MI/Northville/44436-Birchwood-Ct-48168/home/98890090,REALCOMP,20221065630,N,Y,42.4088378,-83.4847029
MLS Listing,,Condo/Co-op,16766 Dover Dr #101,Northville Twp,MI,48168,245000,2,2,Northville Twp,1653,,2002,42,148,310,Active,,,https://www.redfin.com/MI/Northville/16766-Dover-Dr-48168/unit-101/home/183122433,REALCOMP,20221065594,N,Y,42.400345,-83.532655
MLS Listing,,Single Family Residential,132 Randolph St,Northville,MI,48167,495000,3,3,Northville (Wayne County),2154,27007,1880,43,230,,Active,,,https://www.redfin.com/MI/Northville/132-Randolph-St-48167/home/98741308,REALCOMP,20221064857,N,Y,42.4332539,-83.4844621
MLS Listing,,Vacant Land,328 N Center St,Northville,MI,48167,399000,,,Northville (Wayne County),,21780,,45,,,Active,,,https://www.redfin.com/MI/Northville/328-N-Center-St-48167/home/98741303,REALCOMP,20221064444,N,Y,42.4338712,-83.4825455
MLS Listing,,Condo/Co-op,49128 Rainbow Ln S,Northville Twp,MI,48168,469900,2,2,Northville Twp,1935,,2010,46,243,345,Active,,,https://www.redfin.com/MI/Northville/49128-Rainbow-Unknown/home/180681683,REALCOMP,20221063530,N,Y,42.402122,-83.527785
MLS Listing,,Single Family Residential,43538 Six Mile Rd,Northville Twp,MI,48168,3945000,4,7,Northville Twp,5200,155944,2023,49,759,,Active,,,https://www.redfin.com/MI/Northville/43538-Six-Mile-Rd-48168/home/168676796,REALCOMP,20221062824,N,Y,42.4105829,-83.4723562
MLS Listing,,Condo/Co-op,1242 Charleston,Northville,MI,48167,297000,3,3.5,Northville (Oakland County),1712,,1984,50,173,316,Active,,,https://www.redfin.com/MI/Northville/1242-Charleston-Ct-48167/home/99226484,REALCOMP,20221063477,N,Y,42.4397778,-83.4943581
MLS Listing,,Single Family Residential,45612 Tournament Dr,Northville Twp,MI,48168,1200000,4,5,Northville Twp,4478,16552,2000,52,268,146,Active,,,https://www.redfin.com/MI/Northville/45612-Tournament-Dr-48168/home/98890408,REALCOMP,20221063008,N,Y,42.4008487,-83.4887632
MLS Listing,,Condo/Co-op,16896 Dover Dr,Northville Twp,MI,48168,259999,2,2,Northville Twp,1653,,2002,53,157,310,Active,,,https://www.redfin.com/MI/Northville/16896-Dover-Dr-48168/home/98892080,REALCOMP,20221057638,N,Y,42.4004959,-83.534137
MLS Listing,,Condo/Co-op,20718 Taft Rd,Northville,MI,48167,209900,2,2,Northville (Oakland County),1047,,1986,59,200,265,Active,,,https://www.redfin.com/MI/Northville/20718-Taft-Rd-48167/home/99226885,REALCOMP,20221061153,N,Y,42.4370913,-83.4928987
MLS Listing,,Single Family Residential,112 Walnut St,Northville,MI,48167,365000,3,2,Northville (Wayne County),1014,3920,1910,63,360,,Active,,,https://www.redfin.com/MI/Northville/112-Walnut-St-48167/home/98741144,REALCOMP,20221057758,N,Y,42.4365834,-83.4837565
MLS Listing,,Multi-Family (2-4 Unit),597 Randolph St,Northville,MI,48167,1659800,6,3.5,Northville (Wayne County),2088,10454,2022,64,795,,Active,,,https://www.redfin.com/MI/Northville/597-Randolph-St-48167/home/98741216,REALCOMP,20221059233,N,Y,42.4361801,-83.4908784
MLS Listing,,Single Family Residential,43060 Steepleview St,Northville Twp,MI,48168,434000,3,2.5,Northville Twp,2150,10454,1979,66,202,14,Active,,,https://www.redfin.com/MI/Northville/43060-Steepleview-St-48168/home/98889495,REALCOMP,20221056236,N,Y,42.4021647,-83.4634735
MLS Listing,,Mobile/Manufactured Home,9836 Hathaway Dr,Salem Twp,MI,48167,94999,3,2,Salem Twp,1568,,2022,66,61,605,Active,,,https://www.redfin.com/MI/Northville/9836-Hathaway-Dr-48167/home/143962623,REALCOMP,20221059224,N,Y,42.4307786,-83.6109168
MLS Listing,,Vacant Land,43536 6 Mile Rd,Northville Twp,MI,48168,649900,,,Northville Twp,,155944,,69,,,Active,,,https://www.redfin.com/MI/Northville/43536-6-Mile-Rd-48168/home/79072830,REALCOMP,20221057715,N,Y,42.4114777,-83.4737323
MLS Listing,,Single Family Residential,9414 7 Mile,Northville,MI,48167 9118,2950000,6,5.5,Salem Twp,4682,3706955,2004,70,630,,Active,,,https://www.redfin.com/MI/Northville/9414-7-Mile-Rd-48167/home/182561538,MiRealSource-MiMLS,60158710,N,Y,42.416389,-83.582035
MLS Listing,,Single Family Residential,20841 Abingdon,Northville,MI,48167,745490,4,2.5,Northville (Oakland County),3363,,2022,71,222,100,Active,,,https://www.redfin.com/MI/Unknown/20841-Abingdon-St-48167/home/182588654,REALCOMP,20221057818,N,Y,42.4365,-83.4954
MLS Listing,,Single Family Residential,51866 Barnstaple,Northville,MI,48167,704990,4,2.5,Northville,2722,,2022,71,259,100,Active,,,https://www.redfin.com/MI/Northville/51866-Barnstaple-Unknown/home/182587151,MiRealSource-MiMLS,60159172,N,Y,42.4365,-83.4954
MLS Listing,,Single Family Residential,51866 Barnstaple Dr,Northville,MI,48167,704990,4,2.5,Northville (Oakland County),2722,,2022,71,259,100,Active,,,https://www.redfin.com/MI/Northville/51866-Barnstaple-DR-Unknown/home/182586797,REALCOMP,20221057793,N,Y,42.4311464,-83.4832692
MLS Listing,,Condo/Co-op,16701 Carriage Way,Northville Twp,MI,48168,260000,2,2,Northville Twp,1653,,2002,76,157,285,Active,,,https://www.redfin.com/MI/Northville/16701-Carriage-Way-48168/home/98891488,REALCOMP,20221056168,N,Y,42.40055,-83.5319059
MLS Listing,,Single Family Residential,58748 Greystone Dr,Lyon Twp,MI,48178,619990,5,3,Lyon Twp,3379,9583,2023,77,183,125,Active,,,https://www.redfin.com/MI/South-Lyon/58748-Greystone-48178/home/182514006,REALCOMP,20221056281,N,Y,42.440415,-83.629258
MLS Listing,,Single Family Residential,58844 Blackstone Way,Lyon Twp,MI,48178,609990,5,3,Lyon Twp,3160,,2023,77,193,125,Active,,,https://www.redfin.com/MI/South-Lyon/58844-Blackstone-48178/home/182512294,REALCOMP,20221056209,N,Y,42.440415,-83.629258
MLS Listing,,Condo/Co-op,15972 Morningside,Northville Twp,MI,48168,259999,2,2,Northville Twp,1653,,2005,79,157,310,Active,,,https://www.redfin.com/MI/Northville/15972-Morningside-48168/home/98891857,REALCOMP,20221030950,N,Y,42.3984523,-83.5330824
MLS Listing,,Single Family Residential,965 Grace St,Northville,MI,48167,637500,3,3.5,Northville (Oakland County),2744,11325,1956,81,232,,Active,,,https://www.redfin.com/MI/Northville/965-Grace-St-48167/home/61251295,REALCOMP,20221052588,N,Y,42.4420926,-83.4825872
MLS Listing,,Single Family Residential,46078 Frederick St,Northville Twp,MI,48167,309900,3,1.5,Northville Twp,1300,10018,1937,83,238,,Active,,,https://www.redfin.com/MI/Northville/46078-Frederick-St-48167/home/98885035,REALCOMP,20221053227,N,Y,42.4261544,-83.4974606
MLS Listing,,Single Family Residential,18073 Shagbark Dr,Northville Twp,MI,48168,1900000,5,9,Northville Twp,6028,,2020,83,315,200,Active,,,https://www.redfin.com/MI/Northville/18073-Shagbark-Dr-48168/home/145204190,REALCOMP,20221054263,N,Y,42.4142892,-83.5386683
MLS Listing,,Condo/Co-op,16024 Morningside,Northville Twp,MI,48168,250000,2,2,Northville Twp,1380,,2006,84,181,310,Active,,,https://www.redfin.com/MI/Northville/16024-Morningside-48168/home/98891877,REALCOMP,20221053520,N,Y,42.4002849,-83.53323
MLS Listing,,Vacant Land,47551 7 Mile,Northville,MI,48167,1685000,,,Northville,,67518,,88,,,Active,,,https://www.redfin.com/MI/Northville/47551-W-Seven-Mile-Rd-48168/home/182267527,MiRealSource-MiMLS,60153373,N,Y,42.4230038,-83.5136458
MLS Listing,,Single Family Residential,"597 Randolph  St., Unit A St",Northville,MI,48167,828900,3,3.5,Northville (Wayne County),2088,10454,2022,91,397,225,Active,,,https://www.redfin.com/MI/Northville/597-Randolph-St-48167/unit-A/home/174792021,REALCOMP,20221050252,N,Y,42.4362183,-83.4908784
MLS Listing,,Mobile/Manufactured Home,7879 Canterbury Ln,Northville,MI,48167,115000,3,2,Northville (Oakland County),1600,,2012,98,72,,Active,,,https://www.redfin.com/MI/Northville/7879-Canterbury-Ln-48167/home/143962608,REALCOMP,20221049274,N,Y,42.4312316,-83.610586
MLS Listing,,Condo/Co-op,17102 Princeton Ln #50,Northville Twp,MI,48168,649650,2,2,Northville Twp,1834,,2022,100,354,490,Active,,,https://www.redfin.com/MI/Northville/17102-Princeton-Ln-48168/unit-50/home/182013863,REALCOMP,20221046616,N,Y,42.4103614,-83.5336665
MLS Listing,,Single Family Residential,236 West St,Northville,MI,48167,409000,2,2,Northville (Wayne County),1221,3484,1948,107,335,,Active,,,https://www.redfin.com/MI/Northville/236-West-St-48167/home/98741356,REALCOMP,20221043183,N,Y,42.4330712,-83.4866287
MLS Listing,,Condo/Co-op,39446 Springwater Dr,Northville Twp,MI,48168,279000,2,2.5,Northville Twp,1764,,2001,113,158,300,Active,,,https://www.redfin.com/MI/Northville/39446-Springwater-Dr-48168/home/98887360,REALCOMP,20221043745,N,Y,42.4087014,-83.4338898
MLS Listing,,Single Family Residential,17191 Ridge Rd,Northville Twp,MI,48168,1423941,4,3.5,Northville Twp,3642,,2023,115,391,,Active,,,https://www.redfin.com/MI/Northville/17191-Ridge-Rd-48168/home/59335994,REALCOMP,20221030241,N,Y,42.40814,-83.5308819
MLS Listing,,Single Family Residential,19020 Chaumont Way,Northville Twp,MI,48168,1214900,3,2.5,Northville Twp,3000,22215,2023,115,405,183,Active,,,https://www.redfin.com/MI/Northville/19020-Chaumont-Way-48168/home/109252202,REALCOMP,20221031469,N,Y,42.4204497,-83.537247
MLS Listing,,Condo/Co-op,16100 Lairdhaven Dr,Northville Twp,MI,48168,569900,3,2.5,Northville Twp,2380,,1989,126,239,400,Active,,,https://www.redfin.com/MI/Northville/16100-Lairdhaven-Dr-48168/home/98889356,REALCOMP,20221034508,N,Y,42.4100441,-83.4750866
MLS Listing,,Multi-Family (2-4 Unit),350 E Cady St,Northville,MI,48167,695000,4,3,Northville (Wayne County),1416,7405,1870,134,491,,Active,,,https://www.redfin.com/MI/Northville/350-E-Cady-St-48167/home/98742317,REALCOMP,20221035206,N,Y,42.4302003,-83.4785036
MLS Listing,,Single Family Residential,242 S Center St,Northville,MI,48167,695000,3,2,Northville (Wayne County),2119,11325,1900,135,328,,Active,,,https://www.redfin.com/MI/Northville/242-S-Center-St-48167/home/98741838,REALCOMP,20221035205,N,Y,42.4286378,-83.4832955
MLS Listing,,Single Family Residential,7730 Hidden Ridge Ln,Salem Twp,MI,48168,1899000,6,6,Salem Twp,5000,112820,2020,140,380,100,Active,,,https://www.redfin.com/MI/Northville/7730-Hidden-Ridge-Ln-48168/home/99337462,REALCOMP,20221027138,N,Y,42.402174,-83.611063
MLS Listing,,Single Family Residential,416 Yerkes St,Northville,MI,48167,430000,3,1,Northville (Wayne County),1731,8712,1945,143,248,,Active,,,https://www.redfin.com/MI/Northville/416-Yerkes-St-48167/home/60953374,REALCOMP,20221033688,N,Y,42.4274124,-83.4765451
MLS Listing,,Condo/Co-op,17059 Princeton Ln #57,Northville Twp,MI,48168,682820,3,3,Northville Twp,2432,,2022,148,281,490,Active,,,https://www.redfin.com/MI/Township-of-Northville/17059-Princeton-Ln-48168/unit-57/home/181098312,REALCOMP,20221032300,N,Y,42.4103614,-83.5336665
MLS Listing,,Vacant Land,357 S Rogers St,Northville,MI,48167,1300000,,,Northville (Wayne County),,23522,,155,,,Active,,,https://www.redfin.com/MI/Northville/357-S-Rogers-St-48167/home/180943501,REALCOMP,20221024444,N,Y,42.4270648,-83.4892536
MLS Listing,,Single Family Residential,53799 9 Mile Rd,Northville,MI,48167,2500000,3,1.5,Northville,1773,436036,1945,179,1410,,Active,,,https://www.redfin.com/MI/Northville/53799-9-Mile-Rd-48167/home/99037052,SW Michigan MLS,22030009,N,Y,42.4476289,-83.5806374
MLS Listing,,Vacant Land,0000 Stonegate,Salem Twp,MI,48167,69900,,,Salem Twp,,89733,,195,,,Active,,,https://www.redfin.com/MI/Northville/Stonegate-48167/home/180293130,REALCOMP,20221011010,N,Y,42.4365,-83.4946
MLS Listing,,Single Family Residential,737 Horton St,Northville,MI,48167,1950000,4,4,Northville (Oakland County),3575,10454,2023,202,545,,Active,,,https://www.redfin.com/MI/Northville/737-Horton-St-48167/home/179935126,REALCOMP,2220029342,N,Y,42.4386049,-83.4799483
MLS Listing,,Single Family Residential,625 Fairbrook St,Northville Twp,MI,48167,5395000,5,7,Northville Twp,6450,127630,2022,203,836,,Active,,,https://www.redfin.com/MI/Northville/625-Fairbrook-St-48167/home/98886776,REALCOMP,2220040398,N,Y,42.4211211,-83.4913158
MLS Listing,,Vacant Land,735 Horton St,Northville,MI,48167,385000,,,Northville (Oakland County),,10454,,216,,,Active,,,https://www.redfin.com/MI/Northville/735-Horton-St-48167/home/99041385,REALCOMP,2220024522,N,Y,42.4385388,-83.4799204
MLS Listing,,Vacant Land,0000 Oak Knoll Ct,Salem Twp,MI,48168,239900,,,Salem Twp,,102366,,244,,,Active,,,https://www.redfin.com/MI/Salem-Township/Oak-Knoll-Ct-48168/home/179415406,REALCOMP,2220036314,N,Y,42.4089,-83.4991
MLS Listing,,Single Family Residential,16761 Franklin Rd S,Northville Twp,MI,48168,199949,1,1,Northville Twp,1336,11325,,248,150,,Active,,,https://www.redfin.com/MI/Northville/16761-Franklin-Rd-48168/home/98888792,REALCOMP,2220034486,N,Y,42.4084266,-83.4661682
MLS Listing,,Condo/Co-op,20250 Beacon Way #4,Northville Twp,MI,48167,739000,3,3.5,Northville Twp,2779,,2023,282,266,365,Active,,,https://www.redfin.com/MI/Northville/20250-Beacon-Way-48167/unit-4/home/178960604,REALCOMP,2220022533,N,Y,42.4353403,-83.4389675
MLS Listing,,Condo/Co-op,20218 Beacon Way #5,Northville Twp,MI,48167,769000,3,3.5,Northville Twp,2779,,2023,282,277,365,Active,,,https://www.redfin.com/MI/Northville/20218-Beacon-Way-48167/unit-5/home/178960602,REALCOMP,2220022523,N,Y,42.4346747,-83.4387948
MLS Listing,,Condo/Co-op,20233 Beacon Way #9,Northville Twp,MI,48167,749000,3,3.5,Northville Twp,2779,,2023,282,270,365,Active,,,https://www.redfin.com/MI/Northville/20233-Beacon-Way-48167/unit-9/home/178960619,REALCOMP,2220022513,N,Y,42.434788,-83.4396498
MLS Listing,,Condo/Co-op,20249 Beacon Way #10,Northville Twp,MI,48167,749000,3,3.5,Northville Twp,2779,,2023,282,270,365,Active,,,https://www.redfin.com/MI/Northville/20249-Beacon-Way-48167/unit-10/home/178960601,REALCOMP,2220022490,N,Y,42.4350469,-83.4397068
MLS Listing,,Vacant Land,0 W 7 Mile,Northville,MI,48167 9116,169900,,,Salem Twp,,108900,,302,,,Active,,,https://www.redfin.com/MI/Northville/W-Seven-Mile-Rd-Unknown/home/98883175,MiRealSource-MiMLS,60059718,N,Y,42.4366,-83.4938
MLS Listing,,Vacant Land,0 W 7 Mile Rd,Salem Twp,MI,48167,169900,,,Salem Twp,,108900,,302,,,Active,,,https://www.redfin.com/MI/Salem-Twp/0-W-7-Mile-RD-48167/home/175623026,REALCOMP,2220017779,N,Y,42.4366,-83.4938
MLS Listing,,Vacant Land,9339 Cecilia Rd,Salem Twp,MI,48167,585000,,,Salem Twp,,828511,,341,,,Active,,,https://www.redfin.com/MI/Northville/9339-Cecilia-RD-48167/home/180326645,REALCOMP,2220002632,N,Y,42.4366,-83.4938
MLS Listing,,Single Family Residential,9359 Cecilia,Northville,MI,48167,1285000,4,5,Salem Twp,2900,828511,2023,470,443,,Active,,,https://www.redfin.com/MI/Northville/9359-Cecilia-Unknown/home/183542176,MiRealSource-MiMLS,40239548,N,Y,42.4366,-83.4938
MLS Listing,,Single Family Residential,9359 Cecilia Rd,Salem Twp,MI,48167,1285000,4,5,Salem Twp,2900,828511,2023,470,443,,Active,,,https://www.redfin.com/MI/Salem-Township/9359-Cecilia-Dr-48167/home/181644810,REALCOMP,2210080763,N,Y,42.4366,-83.4938
MLS Listing,,Single Family Residential,1 Hickory Ridge Ln,Northville,MI,48167,899900,5,3,Northville (Oakland County),3600,101494,,499,250,,Active,,,https://www.redfin.com/MI/Salem-Township/1-Hickory-Ridge-Rd-48167/home/178231564,REALCOMP,2210072717,N,Y,42.4366,-83.4938
MLS Listing,,Vacant Land,Parcel 1 Hickory Ridge Ln,Northville,MI,48167,299000,,,Northville (Oakland County),,109335,,499,,,Active,,,https://www.redfin.com/MI/Salem-Township/Parcel-1-Hickory-Ridge-Rd-48167/home/178231565,REALCOMP,2210072755,N,Y,42.4366,-83.4938
MLS Listing,,Single Family Residential,9336 Hickory Ridge Ln,Northville,MI,48167,899900,5,3,Northville (Oakland County),3600,101494,2021,524,250,,Active,,,https://www.redfin.com/MI/Northville/9336-Hickory-Ridge-Rd-48167/home/59344698,REALCOMP,2210062630,N,Y,42.426142,-83.5768
MLS Listing,,Single Family Residential,9525 Hickory Ridge Ln,Northville,MI,48167,899900,5,4.5,Northville (Oakland County),3600,130680,2021,524,250,,Active,,,https://www.redfin.com/MI/Northville/9525-Hickory-Ridge-Rd-48167/home/59344699,REALCOMP,2210062018,N,Y,42.426827,-83.576691
MLS Listing,,Single Family Residential,9364 Hickory Ridge Ln,Northville,MI,48167,899900,5,4.5,Northville (Oakland County),3600,117176,,524,250,,Active,,,https://www.redfin.com/MI/Northville/9364-Hickory-Ridge-Rd-48167/home/99381215,REALCOMP,2210062020,N,Y,42.425977,-83.577933
MLS Listing,,Vacant Land,0 Five Mile Rd,Salem Twp,MI,48167,362500,,,Salem Twp,,435600,,540,,,Active,,,https://www.redfin.com/MI/Salem-Twp/0-Five-Mile-RD-48167/home/174716419,REALCOMP,2210058218,N,Y,42.4366,-83.4938
MLS Listing,,Vacant Land,0 Five Mile,Northville,MI,48167,362500,,,Salem Twp,,435600,,540,,,Active,,,https://www.redfin.com/MI/Northville/0-Five-Mile-48167/home/183022428,MiRealSource-MiMLS,40200745,N,Y,42.4366,-83.4938
MLS Listing,,Vacant Land,Parcel 3 Hickory Ridge Ln,Northville,MI,48167,299000,,,Northville (Oakland County),,101494,,553,,,Active,,,https://www.redfin.com/MI/Salem-Township/Parcel-3-Hickory-Ridge-Rd-48167/home/178231563,REALCOMP,2210052179,N,Y,42.426475,-83.576626
MLS Listing,,Vacant Land,Parcel 4B Hickory Ridge Ln,Northville,MI,48167,290000,,,Northville (Oakland County),,117176,,553,,,Active,,,https://www.redfin.com/MI/Salem-Township/Parcel-4B-Hickory-Ridge-Rd-48167/home/178231650,REALCOMP,2210052170,N,Y,42.426213,-83.577124
MLS Listing,,Vacant Land,Parcel 4D Hickory Ridge Ln,Northville,MI,48167,289000,,,Northville (Oakland County),,130680,,553,,,Active,,,https://www.redfin.com/MI/Salem-Township/Parcel-4D-Hickory-Ridge-Rd-48167/home/178231567,REALCOMP,2210052182,N,Y,42.426764,-83.576735
MLS Listing,,Vacant Land,549 Dubuar St,Northville,MI,48167,675000,,,Northville (Wayne County),,18295,,574,,,Active,,,https://www.redfin.com/MI/Northville/549-Dubuar-St-48167/home/183352650,REALCOMP,2210046328,N,Y,42.4325457,-83.4918123
MLS Listing,,Vacant Land,551 Dubuar St,Northville,MI,48167,675000,,,Northville (Wayne County),,18295,,574,,,Active,,,https://www.redfin.com/MI/Northville/551-Dubuar-St-48167/home/183352684,REALCOMP,2210046336,N,Y,42.4325447,-83.4918186
MLS Listing,,Single Family Residential,6002 Seven Mile Rd,Salem Twp,MI,48167,1650000,4,3.5,Salem Twp,3350,970516,2021,654,493,,Active,,,https://www.redfin.com/MI/Salem-Twp/6002-Seven-Mile-RD-48167/home/174796542,REALCOMP,2210020854,N,Y,42.4366,-83.4938
MLS Listing,,Vacant Land,7440 Six Mile Rd,Salem Twp,MI,48167,146900,,,Salem Twp,,150282,,661,,,Active,,,https://www.redfin.com/MI/Salem-Twp/7440-Six-Mile-RD-48167/home/160713587,REALCOMP,2210018868,N,Y,42.403846,-83.616683
MLS Listing,,Vacant Land,0000 Six Mile,Salem,MI,48175,69900,,,Salem Twp,,108900,,747,,,Active,,,https://www.redfin.com/MI/Salem/0000-Six-Mile-48175/home/183026271,MiRealSource-MiMLS,21562225,N,Y,42.4057675,-83.5777875
MLS Listing,,Single Family Residential,22707 Novi,Northville,MI,48167,798000,3,2.5,Novi,1954,17424,2023,791,408,,Active,,,https://www.redfin.com/MI/Northville/22707-Novi-48167/home/181160165,MiRealSource-MiMLS,40121567,N,Y,42.4366,-83.4937
MLS Listing,,Vacant Land,9155 6 Mile Rd,Salem Twp,MI,48168,2700000,,,Salem Twp,,8472420,,931,,,Active,,,https://www.redfin.com/MI/Northville/9155-6-Mile-Rd-48168/home/59344718,REALCOMP,2200048041,N,Y,42.40623747,-83.58569965
MLS Listing,,Vacant Land,22705 Novi,Northville,MI,48167,180000,,,Novi,,16988,,980,,,Active,,,https://www.redfin.com/MI/Northville/22705-Novi-48167/home/175521515,MiRealSource-MiMLS,40049480,N,Y,42.4368,-83.4937
MLS Listing,,Vacant Land,42777 8 Mile,Northville,MI,48167 1932,575000,,,Northville Twp,,44866,,1112,,,Active,,,https://www.redfin.com/MI/Northville/42777-8-Mile-Rd-48167/home/98883893,MiRealSource-MiMLS,40010825,N,Y,42.4371315,-83.4666266
MLS Listing,,Single Family Residential,607 Fairbrook St,Northville,MI,48167,1739900,3,1.5,Northville (Wayne County),1308,211265,1919,1260,1330,,Active,,,https://www.redfin.com/MI/Northville/607-Fairbrook-St-48167/home/98741688,REALCOMP,219078024,N,Y,42.4254851,-83.4913992
MLS Listing,,Vacant Land,9343 Five Mile Rd,Salem Twp,MI,48178,3474900,,,Salem Twp,,7002270,,1263,,,Active,,,https://www.redfin.com/MI/South-Lyon/9343-Five-Mile-Rd-48178/home/99325398,REALCOMP,219076030,N,Y,42.393641,-83.581829
MLS Listing,,Vacant Land,0 Six Mile Rd,Northville,MI,48168,849900,,,South Lyon Cmty,,1559884,,1562,,,Active,,,https://www.redfin.com/MI/Northville/Six-Mile-Rd-48168/home/99342871,AAMLS,3260742,N,Y,42.408412,-83.601814
For-Sale-by-Owner Listing,,Mobile/Manufactured Home,9595 Astor Ct,Northville,MI,48167,87900,3,2,Northville,1809,4500,1997,75,49,,Active,,,https://www.redfin.com/MI/Northville/9595-Astor-Ct-48167/home/167936747,Fizber.com,11483158,N,Y,42.4285534,-83.6053029
For-Sale-by-Owner Listing,,Mobile/Manufactured Home,3436 Nottingham Dr,Northville,MI,48167,64900,3,2,Northville,1316,4000,2002,75,49,,Active,,,https://www.redfin.com/MI/Northville/3436-Nottingham-Dr-48167/home/182543814,Fizber.com,11483159,N,Y,42.4283023,-83.6124553
For-Sale-by-Owner Listing,,Condo/Co-op,870 Yorktown Ct #1,Northville,MI,48167,365000,3,3,Northville,1300,583268,1973,166,281,,Active,,,https://www.redfin.com/MI/Northville/870-Yorktown-Ct-48167/unit-1/home/180743045,Fizber.com,11475454,N,Y,42.4379498,-83.4936554
New Construction Plan,,Single Family Residential,Castleton,Northville,MI,48167,679990,4,2.5,Devonshire,3366,,,,202,,Active,,,https://www.redfin.com/MI/Unknown/Devonshire/Castleton/home/182259593,NewHomeSource.com,Plan-222376309,N,Y,42.435919,-83.555742
New Construction Plan,,Single Family Residential,Woodside,Northville,MI,48167,669990,4,2,Devonshire,3277,,,,204,,Active,,,https://www.redfin.com/MI/Unknown/Devonshire/Woodside/home/182259594,NewHomeSource.com,Plan-222376308,N,Y,42.435919,-83.555742
New Construction Plan,,Single Family Residential,Willwood,Northville,MI,48167,661990,4,2.5,Devonshire,3169,,,,209,,Active,,,https://www.redfin.com/MI/Unknown/Devonshire/Willwood/home/182259595,NewHomeSource.com,Plan-222376307,N,Y,42.435919,-83.555742
New Construction Plan,,Single Family Residential,Maple Valley,Northville,MI,48167,639990,4,2,Devonshire,2722,,,,235,,Active,,,https://www.redfin.com/MI/Unknown/Devonshire/Maple-Valley/home/182259596,NewHomeSource.com,Plan-222376306,N,Y,42.435919,-83.555742
New Construction Plan,,Single Family Residential,Waverly,South Lyon,MI,48178,529990,4,2,Greystone Village,3257,,,,163,,Active,,,https://www.redfin.com/MI/South-Lyon/Greystone-Village/Waverly/home/183305894,NewHomeSource.com,Plan-221933824,N,Y,42.440415,-83.629258
New Construction Plan,,Single Family Residential,Continental,South Lyon,MI,48178,499990,4,2.5,Greystone Village,2873,,,,174,,Active,,,https://www.redfin.com/MI/South-Lyon/Greystone-Village/Continental/home/183298558,NewHomeSource.com,Plan-221933823,N,Y,42.440415,-83.629258
New Construction Plan,,Single Family Residential,Mercer,South Lyon,MI,48178,474990,3,2,Greystone Village,2605,,,,182,,Active,,,https://www.redfin.com/MI/South-Lyon/Greystone-Village/Mercer/home/183283850,NewHomeSource.com,Plan-221933822,N,Y,42.440415,-83.629258
New Construction Plan,,Single Family Residential,Newberry,South Lyon,MI,48178,464990,3,2.5,Greystone Village,2391,,,,194,,Active,,,https://www.redfin.com/MI/South-Lyon/Greystone-Village/Newberry/home/183229524,NewHomeSource.com,Plan-221933821,N,Y,42.440415,-83.629258
